[
    {
        "flight_no": "A3710",
        "date": "2017-08-18",
        "aircraft": "Airbus A321",
        "registration": "-",
        "airline": "Aegean",
        "startLat": 37.9364013672,
        "startLng": 23.9444999695,
        "endLat": 41.2971,
        "endLng": 2.07846,
        "distance": "1904.51 km",
        "dep_iata": "ATH",
        "dest_iata": "BCN",
        "label": "ATH \u2192 BCN"
    },
    {
        "flight_no": "A3711",
        "date": "2017-08-22",
        "aircraft": "Airbus A321",
        "registration": "-",
        "airline": "Aegean",
        "startLat": 41.2971,
        "startLng": 2.07846,
        "endLat": 37.9364013672,
        "endLng": 23.9444999695,
        "distance": "1904.51 km",
        "dep_iata": "BCN",
        "dest_iata": "ATH",
        "label": "BCN \u2192 ATH"
    },
    {
        "flight_no": "A3 682 ",
        "date": "2019-11-27",
        "aircraft": "Airbus A321",
        "registration": "-",
        "airline": "Aegean",
        "startLat": 37.9364013672,
        "startLng": 23.9444999695,
        "endLat": 44.5354,
        "endLng": 11.2887,
        "distance": "1285.41 km",
        "dep_iata": "ATH",
        "dest_iata": "BLQ",
        "label": "ATH \u2192 BLQ"
    },
    {
        "flight_no": "A3 683",
        "date": "2019-12-02",
        "aircraft": "Airbus A321",
        "registration": "-",
        "airline": "Aegean",
        "startLat": 44.5354,
        "startLng": 11.2887,
        "endLat": 37.9364013672,
        "endLng": 23.9444999695,
        "distance": "1285.41 km",
        "dep_iata": "BLQ",
        "dest_iata": "ATH",
        "label": "BLQ \u2192 ATH"
    },
    {
        "flight_no": "GQ820",
        "date": "2024-02-25",
        "aircraft": "A320neo",
        "registration": "",
        "airline": "SkyExpress",
        "startLat": 37.9364013672,
        "startLng": 23.9444999695,
        "endLat": 41.8002778,
        "endLng": 12.2388889,
        "distance": "1086.28 km",
        "dep_iata": "ATH",
        "dest_iata": "FCO",
        "label": "ATH \u2192 FCO"
    },
    {
        "flight_no": "FR1198",
        "date": "2024-02-27",
        "aircraft": "Boeing 737",
        "registration": "",
        "airline": "Ryanair",
        "startLat": 41.8002778,
        "startLng": 12.2388889,
        "endLat": 37.9364013672,
        "endLng": 23.9444999695,
        "distance": "1086.28 km",
        "dep_iata": "FCO",
        "dest_iata": "ATH",
        "label": "FCO \u2192 ATH"
    },
    {
        "flight_no": "FR700",
        "date": "2024-10-09",
        "aircraft": "Boeing 737",
        "registration": "",
        "airline": "Ryanair",
        "startLat": 37.9364013672,
        "startLng": 23.9444999695,
        "endLat": 48.110298156738,
        "endLng": 16.569700241089,
        "distance": "1278.9 km",
        "dep_iata": "ATH",
        "dest_iata": "VIE",
        "label": "ATH \u2192 VIE"
    },
    {
        "flight_no": "FR699",
        "date": "2024-10-12",
        "aircraft": "Boeing 737",
        "registration": "",
        "airline": "Ryanair",
        "startLat": 48.110298156738,
        "startLng": 16.569700241089,
        "endLat": 37.9364013672,
        "endLng": 23.9444999695,
        "distance": "1278.9 km",
        "dep_iata": "VIE",
        "dest_iata": "ATH",
        "label": "VIE \u2192 ATH"
    },
    {
        "flight_no": "FR6030",
        "date": "2025-05-19",
        "aircraft": "Boeing 737",
        "registration": "",
        "airline": "Ryanair",
        "startLat": 37.9364013672,
        "startLng": 23.9444999695,
        "endLat": 35.857498,
        "endLng": 14.4775,
        "distance": "872.56 km",
        "dep_iata": "ATH",
        "dest_iata": "MLA",
        "label": "ATH \u2192 MLA"
    },
    {
        "flight_no": "FR6029",
        "date": "2025-05-21",
        "aircraft": "Boeing 737",
        "registration": "",
        "airline": "Ryanair",
        "startLat": 35.857498,
        "startLng": 14.4775,
        "endLat": 37.9364013672,
        "endLng": 23.9444999695,
        "distance": "872.56 km",
        "dep_iata": "MLA",
        "dest_iata": "ATH",
        "label": "MLA \u2192 ATH"
    },
    {
        "flight_no": "A3700",
        "date": "2025-06-05",
        "aircraft": "Airbus A321",
        "registration": "",
        "airline": "Aegean",
        "startLat": 37.9364013672,
        "startLng": 23.9444999695,
        "endLat": 40.471926,
        "endLng": -3.56264,
        "distance": "2377.14 km",
        "dep_iata": "ATH",
        "dest_iata": "MAD",
        "label": "ATH \u2192 MAD"
    },
    {
        "flight_no": "A3701",
        "date": "2025-06-09",
        "aircraft": "Airbus A321",
        "registration": "",
        "airline": "Aegean",
        "startLat": 40.471926,
        "startLng": -3.56264,
        "endLat": 37.9364013672,
        "endLng": 23.9444999695,
        "distance": "2377.14 km",
        "dep_iata": "MAD",
        "dest_iata": "ATH",
        "label": "MAD \u2192 ATH"
    },
    {
        "flight_no": "W43048",
        "date": "2025-09-28",
        "aircraft": "Airbus A321",
        "registration": "",
        "airline": "Wizz",
        "startLat": 37.9364013672,
        "startLng": 23.9444999695,
        "endLat": 44.5711111,
        "endLng": 26.085,
        "distance": "759.06 km",
        "dep_iata": "ATH",
        "dest_iata": "OTP",
        "label": "ATH \u2192 OTP"
    },
    {
        "flight_no": "W43189",
        "date": "2025-10-04",
        "aircraft": "Airbus A321",
        "registration": "",
        "airline": "Wizz",
        "startLat": 44.5711111,
        "startLng": 26.085,
        "endLat": 36.67490005493164,
        "endLng": -4.499110221862793,
        "distance": "2707.76 km",
        "dep_iata": "OTP",
        "dest_iata": "AGP",
        "label": "OTP \u2192 AGP"
    },
    {
        "flight_no": "FR645",
        "date": "2025-10-07",
        "aircraft": "Boeing 737",
        "registration": "",
        "airline": "Ryanair",
        "startLat": 36.67490005493164,
        "startLng": -4.499110221862793,
        "endLat": 39.4893,
        "endLng": -0.481625,
        "distance": "470.63 km",
        "dep_iata": "AGP",
        "dest_iata": "VLC",
        "label": "AGP \u2192 VLC"
    },
    {
        "flight_no": "A3717",
        "date": "2025-10-09",
        "aircraft": "Airbus A320",
        "registration": "",
        "airline": "Aegean",
        "startLat": 39.4893,
        "startLng": -0.481625,
        "endLat": 37.9364013672,
        "endLng": 23.9444999695,
        "distance": "2119.83 km",
        "dep_iata": "VLC",
        "dest_iata": "ATH",
        "label": "VLC \u2192 ATH"
    },
    {
        "flight_no": "FR1199",
        "date": "2025-11-20",
        "dep_iata": "ATH",
        "dest_iata": "FCO",
        "airline": "Ryanair",
        "aircraft": "Boeing 737",
        "registration": "",
        "startLat": 37.9364013672,
        "startLng": 23.9444999695,
        "endLat": 41.8002778,
        "endLng": 12.2388889,
        "distance": "1086 km",
        "label": "ATH \u2192 FCO"
    },
    {
        "flight_no": "FR1198",
        "date": "2025-11-22",
        "dep_iata": "FCO",
        "dest_iata": "ATH",
        "airline": "Ryanair",
        "aircraft": "Boeing 737",
        "registration": "",
        "startLat": 41.8002778,
        "startLng": 12.2388889,
        "endLat": 37.9364013672,
        "endLng": 23.9444999695,
        "distance": "1086 km",
        "label": "FCO \u2192 ATH"
    }
]